{
	"type": "FeatureCollection",
	"features": [
		{
			"type": "Feature",
			"properties": {
				"名称": "四川省图书馆",
				"级别": 4,
				"开放时间": "2-7: 0900-2030",
				"新旧": 5,
				"体量": 5,
				"座位": 5,
				"光环境": 4,
				"声环境": 4,
				"热环境": 5,
				"热水供应": true,
				"凉水供应": true,
				"电源插座": true,
				"网络质量": 4,
				"marker-size": "large",
				"marker-color": "#cc3300",
				"marker-symbol": "library"
			},
			"geometry": {
				"type": "Point",
				"coordinates": [104.06339, 30.65861]
			}
		},
		{
			"type": "Feature",
			"properties": {
				"名称": "成都市图书馆",
				"级别": 3,
				"开放时间": "1-2,4-7: 0900-2030; 3: 0900-1200",
				"新旧": 1,
				"体量": 3,
				"座位": 2,
				"光环境": 4,
				"声环境": 3,
				"热环境": 2,
				"热水供应": true,
				"凉水供应": false,
				"电源插座": false,
				"网络质量": 3,
				"marker-size": "medium",
				"marker-color": "#339900",
				"marker-symbol": "library"
			},
			"geometry": {
				"type": "Point",
				"coordinates": [104.06032, 30.65283]
			}
		},
		{
			"type": "Feature",
			"properties": {
				"名称": "武侯区图书馆",
				"级别": 2,
				"开放时间": "2-7: 0930-2100; 1: 1300-2100",
				"新旧": 5,
				"体量": 4,
				"座位": 5,
				"光环境": 3,
				"声环境": 3,
				"热环境": 5,
				"热水供应": true,
				"凉水供应": true,
				"电源插座": true,
				"网络质量": 5,
				"marker-size": "medium",
				"marker-color": "#0099ff",
				"marker-symbol": "library"
			},
			"geometry": {
				"type": "Point",
				"coordinates": [104.03361, 30.62364]
			}
		},
		{
			"type": "Feature",
			"properties": {
				"名称": "成华区图书馆",
				"级别": 2,
				"开放时间": "1,3-7: 0900-2000; 2: 1400-2000",
				"新旧": 3,
				"体量": 3,
				"座位": 3,
				"光环境": 4,
				"声环境": 2,
				"热环境": 3,
				"热水供应": true,
				"凉水供应": false,
				"电源插座": false,
				"网络质量": 4,
				"marker-size": "medium",
				"marker-color": "#0099ff",
				"marker-symbol": "library"
			},
			"geometry": {
				"type": "Point",
				"coordinates": [104.09227, 30.67004]
			}
		},
		{
			"type": "Feature",
			"properties": {
				"名称": "青羊区图书馆",
				"级别": 2,
				"开放时间": "1-3,5-7: 0900-2030; 4: 0900-1200",
				"新旧": 3,
				"体量": 3,
				"座位": 3,
				"光环境": 2,
				"声环境": 3,
				"热环境": 2,
				"热水供应": true,
				"凉水供应": false,
				"电源插座": true,
				"网络质量": 4,
				"marker-size": "medium",
				"marker-color": "#0099ff",
				"marker-symbol": "library"
			},
			"geometry": {
				"type": "Point",
				"coordinates": [103.99724, 30.66647]
			}
		},
		{
			"type": "Feature",
			"properties": {
				"名称": "锦江区图书馆",
				"级别": 2,
				"开放时间": "1-7: 0900-2100",
				"新旧": 1,
				"体量": 2,
				"座位": 1,
				"光环境": 1,
				"声环境": 1,
				"热环境": 1,
				"热水供应": true,
				"凉水供应": false,
				"电源插座": false,
				"网络质量": 1,
				"marker-size": "medium",
				"marker-color": "#0099ff",
				"marker-symbol": "library"
			},
			"geometry": {
				"type": "Point",
				"coordinates": [104.068947, 30.651962]
			}
		},
		{
			"type": "Feature",
			"properties": {
				"名称": "高新区图书馆",
				"级别": 2,
				"开放时间": "1-7: 0900-2030",
				"新旧": 4,
				"体量": 3,
				"座位": 3,
				"光环境": 3,
				"声环境": 4,
				"热环境": 3,
				"热水供应": true,
				"凉水供应": true,
				"电源插座": false,
				"网络质量": 2,
				"marker-size": "medium",
				"marker-color": "#0099ff",
				"marker-symbol": "library"
			},
			"geometry": {
				"type": "Point",
				"coordinates": [104.03973, 30.60813]
			}
		},
		{
			"type": "Feature",
			"properties": {
				"名称": "天府新区华阳图书馆（潜溪书院）",
				"级别": 1,
				"开放时间": "1-7: 0900-1200, 1300-1700",
				"新旧": 3,
				"体量": 1,
				"座位": 2,
				"光环境": 1,
				"声环境": 3,
				"热环境": 1,
				"热水供应": false,
				"凉水供应": false,
				"电源插座": true,
				"网络质量": 0,
				"marker-size": "small",
				"marker-color": "#333333",
				"marker-symbol": "library"
			},
			"geometry": {
				"type": "Point",
				"coordinates": [104.0569, 30.521088]
			}
		}
	]
}
